,Name,Latitude,Longitude
0,Addenbrooke's Hospital,52.1760000000000019326762412674725055694580078125,0.14000000000000001332267629550187848508358001708984375
1,Aintree University Hospital,53.4616060000000032914613257162272930145263671875,-2.943427
2,Airedale General Hospital,53.89800000000000324007487506605684757232666015625,-1.9627
3,Alder Hey Children's Hospital,53.4205299999999994042809703387320041656494140625,-2.89677
4,Alexandra Hospital (Cheadle),53.3967870000000033314790925942361354827880859375,-2.216403
5,Alexandra Hospital (Redditch),52.280000000000001136868377216160297393798828125,-1.9127
6,Alfred Bean Hospital,54.01219999999999998863131622783839702606201171875,-0.4232
7,Alnwick,55.41340000000000287627699435688555240631103515625,-1.7069
8,Alnwick Infirmary,55.41100000000000136424205265939235687255859375,-1.6976
9,Altrincham,53.38380000000000080717654782347381114959716796875,-2.3547
10,Altrincham Hospital,53.38499999999999801048033987171947956085205078125,-2.3515
11,Amersham,51.67699999999999960209606797434389591217041015625,-0.603
12,Amersham Hospital,51.66290000000000048885340220294892787933349609375,-0.6214
13,"Andover, Hampshire",51.207999999999998408384271897375583648681640625,-1.48
14,Andover War Memorial Hospital,51.21573099999999811871020938269793987274169921875,-1.494772
15,Anlaby with Anlaby Common,53.74499999999999744204615126363933086395263671875,-0.432
16,Arrowe Park Hospital,53.36987599999999787314663990400731563568115234375,-3.095984
17,"Ascot, Berkshire",51.408400000000000318323145620524883270263671875,-0.6707
18,"Ashbourne, Derbyshire",53.01599999999999823785401531495153903961181640625,-1.731
19,"Ashford, Surrey",51.433999999999997498889570124447345733642578125,-0.464
20,Ashford Hospital,51.44149999999999778310666442848742008209228515625,-0.469
21,Ashington,55.1809999999999973852027324028313159942626953125,-1.568
22,Ashton-under-Lyne,53.48970800000000025420376914553344249725341796875,-2.095241
23,Ashworth Hospital,53.5201899999999994861354934982955455780029296875,-2.91094
24,Auckland Park Hospital,54.65520000000000067075234255753457546234130859375,-1.6832
25,Aylesbury,51.81680000000000063664629124104976654052734375,-0.8124
26,Babington Hospital,53.01830000000000353566065314225852489471435546875,-1.4891
27,Bakewell,53.21300000000000096633812063373625278472900390625,-1.6759
28,Banbury,52.06099999999999994315658113919198513031005859375,-1.336
29,"Barnes Hospital, Cheadle",53.3972222200000032898969948291778564453125,-2.22352778
30,Barnet Hospital,51.65050000000000096633812063373625278472900390625,-0.2141
31,Barnsley,53.55369999999999919282345217652618885040283203125,-1.4791
32,Barnsley Hospital,53.55789999999999650981408194638788700103759765625,-1.4995
33,Barnstaple,51.0799999999999982946974341757595539093017578125,-4.06
34,Barrow-in-Furness,54.1107999999999975671016727574169635772705078125,-3.2261
35,Basildon,51.576099999999996725819073617458343505859375,0.488599999999999978772535769167006947100162506103515625
36,Basildon University Hospital,51.55789999999999650981408194638788700103759765625,0.4516999999999999904076730672386474907398223876953125
37,Basingstoke,51.2667000000000001591615728102624416351318359375,-1.0876
38,Basingstoke and North Hampshire Hospital,51.280000000000001136868377216160297393798828125,-1.11
39,Bassetlaw District General Hospital,53.31739999999999923829818726517260074615478515625,-1.1098
40,"Bath, Somerset",51.38000000000000255795384873636066913604736328125,-2.36
41,Beckenham,51.4080000000000012505552149377763271331787109375,-0.022
42,Beckenham Beacon,51.405000000000001136868377216160297393798828125,-0.033
43,Bedford,52.13499999999999801048033987171947956085205078125,-0.47
44,Bedford Hospital,52.12885700000000355203155777417123317718505859375,-0.471743
45,Bedfordshire,52.0833333300000020926745492033660411834716796875,-0.41666667
46,"Belmont, Sutton",51.34328000000000002955857780762016773223876953125,-0.20239
47,Belper,53.02900000000000346744855050928890705108642578125,-1.475
48,Berkshire,51.4166666699999979073254507966339588165283203125,-1
49,Berwick-upon-Tweed,55.7710000000000007958078640513122081756591796875,-2.007
50,Berwick Infirmary,55.7730999999999994543031789362430572509765625,-2.0051
51,Bethlem Royal Hospital,51.3808999999999969077180139720439910888671875,-0.0306
52,Beverley,53.844999999999998863131622783839702606201171875,-0.427
53,Bexhill Hospital,50.8507000000000033423930290155112743377685546875,0.475399999999999989253041121628484688699245452880859375
54,Billinge Hospital,53.51972221999999845820639166049659252166748046875,-2.7125
55,Birmingham Children's Hospital,52.48474999999999823785401531495153903961181640625,-1.89388889
56,Birmingham Dental Hospital,52.4498999999999995225152815692126750946044921875,-1.9148
57,Birmingham Women's Hospital,52.45320000000000248974174610339105129241943359375,-1.945
58,Bishop's Stortford,51.8719999999999998863131622783839702606201171875,0.17249999999999998667732370449812151491641998291015625
59,Bishop Auckland,54.656599999999997407940099947154521942138671875,-1.6768
60,Bishop Auckland Hospital,54.65570000000000305817593471147119998931884765625,-1.6784
61,Blackburn,53.744900000000001227817847393453121185302734375,-2.4769
62,Blackpool,53.81416666999999875997673370875418186187744140625,-3.05027778
63,Blackpool Victoria Hospital,53.8215900000000004865796654485166072845458984375,-3.0156
64,Bloomsbury,51.5262000000000028876456781290471553802490234375,-0.1178
65,"Blyth, Northumberland",55.12599999999999766941982670687139034271240234375,-1.514
66,Blyth Community Hospital,55.12780000000000057980287238024175167083740234375,-1.5171
67,Bodmin,50.46600000000000108002495835535228252410888671875,-4.718
68,Bodmin Hospital,50.46719999999999828332875040359795093536376953125,-4.7414
69,Bolton,53.578000000000002955857780762016773223876953125,-2.429
70,"Boston, Lincolnshire",52.97399999999999664623828721232712268829345703125,-0.0214
71,Bournemouth,50.719999999999998863131622783839702606201171875,-1.88
72,Bradford,53.7999999999999971578290569595992565155029296875,-1.75
73,Bradford Royal Infirmary,53.8058333299999986820694175548851490020751953125,-1.79444444
74,Bridlington,54.08189999999999741930878371931612491607666015625,-0.1923
75,Bridlington Hospital,54.0867999999999966576069709844887256622314453125,-0.2159
77,Brighton General Hospital,50.8310000000000030695446184836328029632568359375,-0.1145
78,Bristol,51.4500000000000028421709430404007434844970703125,-2.58333333
79,Bristol Eye Hospital,51.4585000000000007958078640513122081756591796875,-2.5948
80,Bristol Royal Hospital for Children,51.457706000000001722582965157926082611083984375,-2.597261
81,Bristol Royal Infirmary,51.45900000000000318323145620524883270263671875,-2.5963
82,Broadgreen Hospital,53.41080000000000183035808731801807880401611328125,-2.8986
83,Broadmoor Hospital,51.369166669999998475759639404714107513427734375,-0.77861111
84,Bromley,51.4069999999999964757080306299030780792236328125,0.0210000000000000013045120539345589349977672100067138671875
85,Broomfield Hospital,51.7745000000000032969182939268648624420166015625,0.466100000000000014299672557172016240656375885009765625
86,Buckland Hospital,51.13210000000000121644916362129151821136474609375,1.2922000000000000152766688188421539962291717529296875
87,Burnley,53.7890000000000014779288903810083866119384765625,-2.248
88,Burnley General Teaching Hospital,53.80792999999999892679625190794467926025390625,-2.22547
89,Burton upon Trent,52.80194443999999975858372636139392852783203125,-1.63666667
90,"Bury, Greater Manchester",53.5930000000000035242919693700969219207763671875,-2.298
91,Bury St Edmunds,52.247399999999998954081092961132526397705078125,0.71830000000000004956035581926698796451091766357421875
92,Buxton,53.2590000000000003410605131648480892181396484375,-1.911
93,Buxton Hospital,53.24810000000000087538865045644342899322509765625,-1.9088
94,Calderdale Royal Hospital,53.7049999999999982946974341757595539093017578125,-1.857
95,Camberwell,51.47359999999999757847035652957856655120849609375,-0.0912
96,Camborne Redruth Community Hospital,50.2289999999999992041921359486877918243408203125,-5.245
97,Cambridge,52.2052777800000029628790798597037792205810546875,0.1191666700000000023162982643043505959212779998779296875
98,Cambridgeshire,52.3333333300000020926745492033660411834716796875,0
99,Cannock,52.691000000000002501110429875552654266357421875,-2.027
100,Cannock Chase Hospital,52.692599999999998772182152606546878814697265625,-2.0303
101,Canterbury,51.280000000000001136868377216160297393798828125,1.0800000000000000710542735760100185871124267578125
102,Carlisle,54.89099999999999823785401531495153903961181640625,-2.944
103,Castle Hill Hospital,53.7770000000000010231815394945442676544189453125,-0.445
104,Castleberg Hospital,54.06949999999999789679350215010344982147216796875,-2.2922
105,Cavendish Hospital,53.2623999999999995225152815692126750946044921875,-1.9211
106,Central Middlesex Hospital,51.51899999999999835154085303656756877899169921875,-0.1377
107,Chandler's Ford,50.98400000000000176214598468504846096038818359375,-1.3792
108,Chapel Allerton Hospital,53.82260000000000133013600134290754795074462890625,-1.5298
109,Charing Cross Hospital,51.48709999999999809006112627685070037841796875,-0.2195
110,Charles Clifford Dental Hospital,53.37960000000000349018591805361211299896240234375,-1.4937
111,Chase Farm Hospital,51.66689999999999827196006663143634796142578125,-0.1029
112,"Cheadle, Greater Manchester",53.39330000000000353566065314225852489471435546875,-2.2113
113,Cheadle Royal Hospital,53.37480000000000046611603465862572193145751953125,-2.2211
114,Cheam,51.3599999999999994315658113919198513031005859375,-0.21
115,Chelmsford,51.73610000000000042064129956997931003570556640625,0.47980000000000000426325641456060111522674560546875
116,"Chelsea, London",51.4874999999999971578290569595992565155029296875,-0.1684
117,Chelsea and Westminster Hospital,51.48400000000000176214598468504846096038818359375,-0.182
118,Cheltenham,51.89999999999999857891452847979962825775146484375,-2.06666667
119,Cheltenham General Hospital,51.8924999999999982946974341757595539093017578125,-2.0715
120,Chertsey,51.39020000000000010231815394945442676544189453125,-0.5074
121,Cheshire,53.1666666699999979073254507966339588165283203125,-2.58333333
122,Chester,53.18999999999999772626324556767940521240234375,-2.89
123,Chester-le-Street,54.85940000000000082991391536779701709747314453125,-1.5699
124,Chester-le-Street Hospital,54.8509999999999990905052982270717620849609375,-1.5751
125,Chesterfield,53.23583332999999839785232325084507465362548828125,-1.4275
126,Chesterfield Royal Hospital,53.2359000000000008867573342286050319671630859375,-1.3969
127,Chichester,50.8365000000000009094947017729282379150390625,-0.7792
128,Chipping Barnet,51.64439999999999741930878371931612491607666015625,-0.1997
129,Chorley,53.65299999999999869260136620141565799713134765625,-2.632
130,Chorley and South Ribble Hospital,53.66599999999999681676854379475116729736328125,-2.635
131,"Christchurch, Dorset",50.72999999999999687361196265555918216705322265625,-1.78
132,"Christchurch Hospital, Dorset",50.744663889999998218627297319471836090087890625,-1.79041667
133,Churchill Hospital,51.74938339999999925566953606903553009033203125,-1.2156712
134,"City Hospital, Birmingham",52.48805555999999938876499072648584842681884765625,-1.93138889
135,"City of Preston, Lancashire",53.7590000000000003410605131648480892181396484375,-2.699
136,City of Salford,53.5097222200000004477260517887771129608154296875,-2.33444444
137,City of Westminster,51.5122222199999981739892973564565181732177734375,-0.16333333
138,Claremont Hospital,53.3755359999999967612893669866025447845458984375,-1.535685
139,Clatterbridge Health Park,53.3350999999999970668795867823064327239990234375,-3.0226
140,Clatterbridge Hospital,53.3331950000000034606273402459919452667236328125,-3.024193
141,Clevedon,51.4380000000000023874235921539366245269775390625,-2.854
142,Colchester,51.8917000000000001591615728102624416351318359375,0.903000000000000024868995751603506505489349365234375
143,Colchester Hospital,51.90990000000000037516656448133289813995361328125,0.899199999999999999289457264239899814128875732421875
144,Conquest Hospital,50.88535999999999859255694900639355182647705078125,0.5676900000000000279243295153719373047351837158203125
145,Coppetts Wood Hospital,51.60199999999999675992512493394315242767333984375,-0.1539
146,Cornwall,50.39999999999999857891452847979962825775146484375,-4.9
147,Cossham Memorial Hospital,51.4688000000000016598278307355940341949462890625,-2.5162
148,"Cottingham, East Riding of Yorkshire",53.782161999999999579813447780907154083251953125,-0.413629
149,Countess of Chester Hospital,53.20861110999999965542883728630840778350830078125,-2.89861111
150,County Durham,54.6666666699999979073254507966339588165283203125,-1.83333333
151,"County Hospital, Durham",54.77859000000000122554411063902080059051513671875,-1.58472
152,"County Hospital, Stafford",52.810699999999997089616954326629638671875,-2.0983
153,County Hospital Louth,53.37129999999999796500560478307306766510009765625,-0.0094
154,Coventry,52.40805556000000109406755655072629451751708984375,-1.51055556
155,Cramlington,55.08200000000000073896444519050419330596923828125,-1.585
156,Crawley,51.10916667000000046527929953299462795257568359375,-0.18722222
157,Crawley Hospital,51.11660599999999732290234533138573169708251953125,-0.197443
158,Crewe,53.09899999999999664623828721232712268829345703125,-2.44
159,Cromer,52.9309999999999973852027324028313159942626953125,1.302000000000000046185277824406512081623077392578125
160,Cromer Hospital,52.923799999999999954525264911353588104248046875,1.3091999999999999193533994912286289036273956298828125
161,Cromwell Hospital,51.494900000000001227817847393453121185302734375,-0.1914
162,Crowthorne,51.36999999999999744204615126363933086395263671875,-0.792
163,Croydon University Hospital,51.3900000000000005684341886080801486968994140625,-0.11
164,Cumberland Infirmary,54.89651500000000083900886238552629947662353515625,-2.957736
165,Darent Valley Hospital,51.43500000000000227373675443232059478759765625,0.25833333000000002765972340057487599551677703857421875
166,Darlington,54.5270000000000010231815394945442676544189453125,-1.5526
167,Darlington Memorial Hospital,54.530000000000001136868377216160297393798828125,-1.5643
168,Dartford,51.43999999999999772626324556767940521240234375,0.2200000000000000011102230246251565404236316680908203125
169,Davyhulme,53.45588099999999798228600411675870418548583984375,-2.368252
170,Derby,52.9166666699999979073254507966339588165283203125,-1.46666667
171,Derbyshire,53.133333329999999250503606162965297698974609375,-1.6
172,Derbyshire Children's Hospital,52.90979999999999705551090301014482975006103515625,-1.5127
173,Derriford Hospital,50.4162000000000034560798667371273040771484375,-4.1141
174,Devizes,51.35300000000000153477230924181640148162841796875,-1.994
175,Devon,50.71666667000000217058186535723507404327392578125,-3.71666667
176,Dewsbury,53.691000000000002501110429875552654266357421875,-1.633
177,Dewsbury and District Hospital,53.70246999999999815145201864652335643768310546875,-1.65081
178,"Diana, Princess of Wales Hospital",48.86436110999999726800524513237178325653076171875,2.30188888999999985429667503922246396541595458984375
179,Doncaster,53.5150000000000005684341886080801486968994140625,-1.133
180,Doncaster Royal Infirmary,53.53099999999999880628820392303168773651123046875,-1.109
181,"Dorchester, Dorset",50.7154000000000024783730623312294483184814453125,-2.4367
182,Dorset,50.7999999999999971578290569595992565155029296875,-2.3
183,Dorset County Hospital,50.7126999999999981127984938211739063262939453125,-2.4456
184,Dover,51.12950000000000017053025658242404460906982421875,1.308899999999999952393636704073287546634674072265625
185,Driffield,54.00500000000000255795384873636066913604736328125,-0.438
186,Dudley,52.50800000000000267164068645797669887542724609375,-2.089
187,"Durham, England",54.7760999999999995679900166578590869903564453125,-1.5733
188,Dursley,51.6811000000000007048583938740193843841552734375,-2.3543
189,Ealing Hospital,51.5069444399999980532811605371534824371337890625,-0.34555556
190,East Grinstead,51.12899999999999778310666442848742008209228515625,-0.007
191,East Midlands,52.97999999999999687361196265555918216705322265625,-0.75
192,East Riding Community Hospital,53.85249999999999914734871708787977695465087890625,-0.4139
193,East Riding of Yorkshire,53.9166666699999979073254507966339588165283203125,-0.5
194,East Surrey Hospital,51.2188000000000016598278307355940341949462890625,-0.1643
195,East Sussex,50.9166666699999979073254507966339588165283203125,0.33333332999999998325080241556861437857151031494140625
196,East of England,52.24000000000000198951966012828052043914794921875,0.409999999999999975575093458246556110680103302001953125
197,Eastbourne,50.77000000000000312638803734444081783294677734375,0.2800000000000000266453525910037569701671600341796875
198,Eastbourne District General Hospital,50.88535999999999859255694900639355182647705078125,0.5676900000000000279243295153719373047351837158203125
199,Edgbaston,52.457999999999998408384271897375583648681640625,-1.919
200,"Edmonton, London",51.61540000000000105728759081102907657623291015625,-0.0708
201,Edward Hain Hospital,50.207999999999998408384271897375583648681640625,-5.4793
202,Ellen Badger Hospital,52.06680000000000063664629124104976654052734375,-1.6228
203,Enfield Town,51.6522222199999987424234859645366668701171875,-0.08083333
204,England,51.5,-0.11666667
205,"Epping, Essex",51.70040000000000190993887372314929962158203125,0.10870000000000000495159468982819817028939723968505859375
206,Epsom,51.3359999999999985220711096189916133880615234375,-0.267
207,Epsom Hospital,51.32535899999999884357748669572174549102783203125,-0.27387
208,Essex,51.75,0.58333332999999998325080241556861437857151031494140625
209,Evelina London Children's Hospital,51.4980555599999973992453305982053279876708984375,-0.11833333
210,Exeter,50.71666667000000217058186535723507404327392578125,-3.53333333
211,Fairfield General Hospital,53.60000000000000142108547152020037174224853515625,-2.26
212,Fareham,50.85000000000000142108547152020037174224853515625,-1.18
213,Fareham Community Hospital,50.870800000000002683009370230138301849365234375,-1.2755
214,"Farnborough, London",51.3590999999999979763742885552346706390380859375,0.074099999999999999200639422269887290894985198974609375
215,Farnworth,53.54520000000000123918653116561472415924072265625,-2.3999
216,Fieldhead Hospital,53.6974000000000017962520360015332698822021484375,-1.4923
217,Fitzrovia,51.518000000000000682121026329696178436279296875,-0.136
218,Folkestone,51.0810000000000030695446184836328029632568359375,1.165999999999999925393012745189480483531951904296875
219,Fordingbridge,50.92750000000000198951966012828052043914794921875,-1.7901
220,Fordingbridge Hospital,50.9275200000000012323653209023177623748779296875,-1.79292
221,Fountain Way,51.0720000000000027284841053187847137451171875,-1.81
222,Freeman Hospital,55.00200000000000244426701101474463939666748046875,-1.594
223,Friarage Hospital,54.342333330000002433735062368214130401611328125,-1.43094444
224,Friary Community Hospital,54.40509999999999735109668108634650707244873046875,-1.7386
225,Frimley,51.314300000000002910383045673370361328125,-0.7387
226,Frimley Park Hospital,51.31960000000000121644916362129151821136474609375,-0.7441
227,Furness General Hospital,54.13640000000000185309545486234128475189208984375,-3.2079
228,"Gainsborough, Lincolnshire",53.401600000000001955413608811795711517333984375,-0.7732
229,Gateshead,54.9500000000000028421709430404007434844970703125,-1.6
230,George Eliot Hospital,52.5108000000000032514435588382184505462646484375,-1.4757
231,Giggleswick,54.073700000000002319211489520967006683349609375,-2.2896
232,"Glenfield, Leicestershire",52.64907000000000181216819328255951404571533203125,-1.20622
233,Glenfield Hospital,52.65461110999999760906575829721987247467041015625,-1.17897222
234,Gloucester,51.86444443999999975858372636139392852783203125,-2.24444444
235,Gloucestershire,51.8333333300000020926745492033660411834716796875,-2.16666667
236,Gloucestershire Royal Hospital,51.8652777799999995522739482112228870391845703125,-2.23055556
237,Good Hope Hospital,52.56700000000000017053025658242404460906982421875,-1.812
238,Goole,53.69921699999999731289790361188352108001708984375,-0.869171
239,Goole and District Hospital,53.716555999999997084159986115992069244384765625,-0.874494
240,Gorleston,52.5756999999999976580511429347097873687744140625,1.723500000000000031974423109204508364200592041015625
241,Gosforth,55.00699999999999789679350215010344982147216796875,-1.623
242,Gosport War Memorial Hospital,50.79310000000000258069121628068387508392333984375,-1.1481
243,"Grantham, Lincolnshire",52.91799999999999926103555480949580669403076171875,-0.638
244,Grantham and District Hospital,52.92094999999999771489456179551780223846435546875,-0.64187
245,Gray's Inn Road,51.52376000000000288991941488347947597503662109375,-0.11545
246,Great Ormond Street Hospital,51.52250000000000085265128291212022304534912109375,-0.1205
247,Great Western Hospital,51.54899999999999948840923025272786617279052734375,-1.755
248,Great Yarmouth,52.60600000000000164845914696343243122100830078125,1.72900000000000009237055564881302416324615478515625
249,Green Lane Hospital,51.339100000000001955413608811795711517333984375,-1.9814
250,Grimsby,53.5594999999999998863131622783839702606201171875,-0.068
251,Grovelands Park,51.632777779999997846971382386982440948486328125,-0.11527778
252,Guildford,51.23649999999999948840923025272786617279052734375,-0.5703
253,Guy's Hospital,51.50333332999999669254975742660462856292724609375,-0.08694444
254,"Halifax, West Yorkshire",53.72500000000000142108547152020037174224853515625,-1.863
255,Halton General Hospital,53.32390000000000185309545486234128475189208984375,-2.6943
256,Haltwhistle,54.969999999999998863131622783839702606201171875,-2.458
257,Haltwhistle War Memorial Hospital,54.969999999999998863131622783839702606201171875,-2.4631
258,Hammersmith,51.4928000000000025693225325085222721099853515625,-0.2229
259,Hammersmith Hospital,51.516300000000001091393642127513885498046875,-0.2369
260,Hampstead,51.55409999999999826059138285927474498748779296875,-0.1744
261,Harefield,51.60340000000000060254023992456495761871337890625,-0.478
262,Harefield Hospital,51.606999999999999317878973670303821563720703125,-0.483
263,Harlow,51.77900000000000346744855050928890705108642578125,0.12800000000000000266453525910037569701671600341796875
264,Harplands Hospital,53.00046999999999997044142219237983226776123046875,-2.21043
265,Harringay,51.58189999999999741930878371931612491607666015625,-0.0994
266,Harrogate,53.991944439999997484846971929073333740234375,-1.53777778
267,Harrogate District Hospital,53.9936500000000023646862246096134185791015625,-1.51766
268,Hartlepool,54.68999999999999772626324556767940521240234375,-1.21
269,Hastings,50.85000000000000142108547152020037174224853515625,0.56999999999999995115018691649311222136020660400390625
270,Havering,51.5499999999999971578290569595992565155029296875,0.216666670000000005646967338179820217192173004150390625
271,Hayle,50.18299999999999982946974341757595539093017578125,-5.416
272,Haywards Heath,51.0048000000000030240698833949863910675048828125,-0.0979
273,Heartlands Hospital,52.47879999999999967030817060731351375579833984375,-1.8295
274,Heatherwood Hospital,51.4107920000000007121343514882028102874755859375,-0.686782
275,Hellesdon Hospital,52.6597000000000008412825991399586200714111328125,1.2522999999999999687361196265555918216705322265625
276,"Helston, Cornwall",50.10000000000000142108547152020037174224853515625,-5.27
277,Helston Community Hospital,50.09179999999999921556081972084939479827880859375,-5.2651
278,Hemel Hempstead,51.752600000000001045918907038867473602294921875,-0.4692
279,Hemel Hempstead Hospital,51.75086590000000086320142145268619060516357421875,-0.4707737
280,Hereford,52.056499999999999772626324556767940521240234375,-2.716
281,Hereford County Hospital,52.0569100000000020145307644270360469818115234375,-2.70553
282,Hertfordshire,51.81666666999999648623997927643358707427978515625,-0.21666667
283,Herts and Essex Hospital,51.8657400000000023965185391716659069061279296875,0.17483999999999999541699935434735380113124847412109375
284,Hexham,54.97099999999999653255144949071109294891357421875,-2.101
285,Hexham General Hospital,54.96920000000000072759576141834259033203125,-2.0945
286,High Wycombe,51.62866100000000102454578154720366001129150390625,-0.748238
287,Highgate,51.57159999999999655528881703503429889678955078125,-0.1448
288,Hillingdon,51.5328999999999979308995534665882587432861328125,-0.455
289,Hillingdon Hospital,51.5258333299999975452010403387248516082763671875,-0.46111111
290,Hinchingbrooke Hospital,52.33290000000000219415596802718937397003173828125,-0.2011
291,Homerton,51.55212000000000216459739021956920623779296875,-0.04704
292,Homerton University Hospital,51.55040000000000333102434524334967136383056640625,-0.0483
293,Hornsea,53.91080000000000183035808731801807880401611328125,-0.1676
294,Hornsea Cottage Hospital,53.915199999999998681232682429254055023193359375,-0.1692
295,Horsham,51.0619999999999976125764078460633754730224609375,-0.325
296,Horsham Hospital,51.070099999999996498445398174226284027099609375,-0.3247
297,Horton General Hospital,52.053730000000001609805622138082981109619140625,-1.33628
298,"Hospital of St. Cross, Rugby",52.36399999999999721467247582040727138519287109375,-1.2589
299,Hospital of St John and St Elizabeth,51.53277778000000353131326846778392791748046875,-0.17416667
300,Hove,50.8352000000000003865352482534945011138916015625,-0.1758
301,Huddersfield,53.64500000000000312638803734444081783294677734375,-1.7798
302,Huddersfield Royal Infirmary,53.655000000000001136868377216160297393798828125,-1.816
303,Hull Royal Infirmary,53.7445000000000021600499167107045650482177734375,-0.3565
304,Hull and East Riding Hospital,53.73938100000000162026481120847165584564208984375,-0.435098
305,Huntingdon,52.336399999999997589839040301740169525146484375,-0.1717
306,Ilkeston,52.97099999999999653255144949071109294891357421875,-1.309
307,Ilkeston Community Hospital,52.988100000000002864908310584723949432373046875,-1.3207
308,Illogan Highway,50.22999999999999687361196265555918216705322265625,-5.266
309,Ipswich,52.05944444000000004280082066543400287628173828125,1.1555555600000000371352371075772680342197418212890625
310,Ipswich Hospital,52.0570000000000021600499167107045650482177734375,1.1978999999999999648281345798750407993793487548828125
311,Isle of Wight,50.6666666699999979073254507966339588165283203125,-1.26666667
312,Isleworth,51.46600000000000108002495835535228252410888671875,-0.336
313,James Cook University Hospital,54.55199999999999960209606797434389591217041015625,-1.214
314,James Paget University Hospital,52.561700000000001864464138634502887725830078125,1.7177000000000000046185277824406512081623077392578125
315,John Coupland Hospital,53.411799999999999499777914024889469146728515625,-0.7847
316,John Radcliffe Hospital,51.76380556000000154881490743719041347503662109375,-1.21875
317,KIMS Hospital,51.28614999999999923829818726517260074615478515625,0.55662000000000000365929508916451595723628997802734375
318,Keighley,53.86699999999999732835931354202330112457275390625,-1.911
319,Kendal,54.32600000000000051159076974727213382720947265625,-2.745
320,Kendray Hospital,53.54549999999999698729880037717521190643310546875,-1.4567
321,Kent,51.2000000000000028421709430404007434844970703125,0.6999999999999999555910790149937383830547332763671875
322,Kent and Canterbury Hospital,51.26639999999999730562194599770009517669677734375,1.08840000000000003410605131648480892181396484375
324,Kettering General Hospital,40.76409600000000210684447665698826313018798828125,-73.956842
325,Kidderminster,52.38850000000000051159076974727213382720947265625,-2.249
326,Kidderminster Hospital,52.38600000000000278532752417959272861480712890625,-2.2611
327,King's College Hospital,51.4680000000000035242919693700969219207763671875,-0.0938
328,King's Lynn,52.75430000000000063664629124104976654052734375,0.397600000000000008970602038971264846622943878173828125
329,King's Mill Hospital,53.13527778000000267866198555566370487213134765625,-1.23416667
330,King Edward VII's Hospital,51.52091666999999830522938282229006290435791015625,-0.15041667
331,"King George Hospital, London",51.580500000000000682121026329696178436279296875,0.11200000000000000233146835171282873488962650299072265625
332,Kingsbridge,50.28329999999999699866748414933681488037109375,-3.7765
333,Kingston Hospital,51.41449999999999675992512493394315242767333984375,-0.2816
334,Kingston upon Hull,53.7443333300000034569166018627583980560302734375,-0.3325
335,Kingston upon Thames,51.41029999999999944293449516408145427703857421875,-0.2995
336,Lambeth,51.49029999999999773763192933984100818634033203125,-0.1193
337,Lambeth Hospital,51.466599999999999681676854379475116729736328125,-0.1231
338,Lancashire,53.7999999999999971578290569595992565155029296875,-2.6
339,"Lancaster, Lancashire",54.046999999999997044142219237983226776123046875,-2.801
340,Lanchester Road Hospital,54.79849999999999710098563809879124164581298828125,-1.613
341,Leamington Spa,52.292000000000001591615728102624416351318359375,-1.537
342,Leeds,53.79972221999999959507476887665688991546630859375,-1.54916667
343,Leeds Dental Institute,53.80330000000000012505552149377763271331787109375,-1.5557
344,Leeds General Infirmary,53.80207999999999657347871107049286365509033203125,-1.55083
345,Leicester,52.633333329999999250503606162965297698974609375,-1.13333333
346,Leicester General Hospital,52.63000000000000255795384873636066913604736328125,-1.08361111
347,Leicester Royal Infirmary,52.62740000000000151203494169749319553375244140625,-1.1365
348,Leicestershire,52.71666667000000217058186535723507404327392578125,-1.18333333
349,"Leigh, Greater Manchester",53.49750000000000227373675443232059478759765625,-2.515
350,Leigh Infirmary,53.50410000000000110276232589967548847198486328125,-2.5121
351,Leighton Hospital,53.119900000000001227817847393453121185302734375,-2.4778
352,Lewes,50.87562700000000148747858474962413311004638671875,0.0178549999999999993438581924465324846096336841583251953125
353,Lewes Victoria Hospital,50.875,-0.0054
354,Lewisham,51.4609999999999985220711096189916133880615234375,-0.005
355,Leytonstone,51.5690000000000026147972675971686840057373046875,0.01000000000000000020816681711721685132943093776702880859375
356,"Lincoln, Lincolnshire",53.23444443999999720062987762503325939178466796875,-0.53861111
357,Lincolnshire,53.06666666999999648623997927643358707427978515625,-0.18333333
358,Liverpool,53.39999999999999857891452847979962825775146484375,-2.98333333
359,Liverpool Heart and Chest Hospital,53.4106000000000022964741219766438007354736328125,-2.9014
360,Liverpool Women's Hospital,53.398449999999996862243278883397579193115234375,-2.96098
361,Locksheath,50.86200000000000187583282240666449069976806640625,-1.269
362,London,51.5072222200000027214628062210977077484130859375,-0.1275
363,London Borough of Brent,51.56611111000000136073140311054885387420654296875,-0.27388889
364,London Borough of Camden,51.53333332999999782941813464276492595672607421875,-0.16666667
365,London Borough of Hammersmith and Fulham,51.5,-0.25
366,London Borough of Islington,51.53333332999999782941813464276492595672607421875,-0.13333333
367,London Borough of Redbridge,51.56666666999999648623997927643358707427978515625,0.08333332999999999712859022338307113386690616607666015625
368,London Borough of Tower Hamlets,51.51666666999999932841092231683433055877685546875,-0.05
369,London Bridge Hospital,51.5063999999999992951416061259806156158447265625,-0.0859
370,London Road Community Hospital,52.9140000000000014779288903810083866119384765625,-1.469
371,"Louth, Lincolnshire",53.3669000000000011141310096718370914459228515625,-0.0061
372,Luton,51.87833332999999669254975742660462856292724609375,-0.41472222
373,Luton and Dunstable University Hospital,51.89399999999999835154085303656756877899169921875,-0.474
374,Lymington,50.75,-1.55
375,Lymington New Forest Hospital,50.7691999999999978854248183779418468475341796875,-1.5457
376,Lynfield Mount Hospital,53.80980000000000273985278909094631671905517578125,-1.8053
377,Lytham,53.74260000000000303543856716714799404144287109375,-2.997
378,Lytham Hospital,53.73830000000000239879227592609822750091552734375,-2.9474
379,Macclesfield,53.2580999999999988858689903281629085540771484375,-2.1274
380,Macclesfield District General Hospital,53.2623999999999995225152815692126750946044921875,-2.1419
381,Maidstone,51.27199999999999846522769075818359851837158203125,0.52900000000000002575717417130363173782825469970703125
382,Maidstone Hospital,51.2740000000000009094947017729282379150390625,0.483200000000000018385293287792592309415340423583984375
383,"Malton, North Yorkshire",54.13900000000000289901436190120875835418701171875,-0.792
384,Malton Community Hospital,54.13719999999999998863131622783839702606201171875,-0.8065
385,Manchester,53.47944444000000174810338648967444896697998046875,-2.24527778
386,Manchester Royal Eye Hospital,53.46194444000000345340595231391489505767822265625,-2.22861111
387,Manchester Royal Infirmary,53.46222222000000101616024039685726165771484375,-2.22638889
388,Margate,51.38499999999999801048033987171947956085205078125,1.38379999999999991899812812334857881069183349609375
389,Marylebone,51.51769999999999782858139951713383197784423828125,-0.147
390,"Matlock, Derbyshire",53.1400000000000005684341886080801486968994140625,-1.55
391,Maudsley Hospital,51.4688888900000023340908228419721126556396484375,-0.09111111
392,Medway,51.3900000000000005684341886080801486968994140625,0.54000000000000003552713678800500929355621337890625
393,Medway Maritime Hospital,51.38000000000000255795384873636066913604736328125,0.5419444399999999717465470894239842891693115234375
394,"Memorial Hospital, Woolwich",51.46889999999999787405613460578024387359619140625,0.06539999999999999980015985556747182272374629974365234375
395,Merseyside,53.4166666699999979073254507966339588165283203125,-3
396,Metropolitan Borough of Wirral,53.39697199999999810415829415433108806610107421875,-3.011914
397,Mexborough,53.499200000000001864464138634502887725830078125,-1.283
398,Middlesbrough,54.5767000000000024328983272425830364227294921875,-1.2355
399,Middleton St George,54.51243000000000193949745153076946735382080078125,-1.46757
400,Mile End Hospital,51.524799999999999045030563138425350189208984375,-0.04304
401,Milton Keynes,52.03999999999999914734871708787977695465087890625,-0.76
402,Milton Keynes University Hospital,52.02642999999999773308445583097636699676513671875,-0.7363
403,Mitcham,51.40090000000000003410605131648480892181396484375,-0.1517
404,Monkwearmouth Hospital,54.923900000000003274180926382541656494140625,-1.3864
405,Montagu Hospital,53.5,-1.285
406,Moorfields Eye Hospital,51.5272222199999987424234859645366668701171875,-0.09
407,Moorgreen Hospital,50.9279999999999972715158946812152862548828125,-1.323
408,Morecambe,54.07300000000000039790393202565610408782958984375,-2.87
409,Moseley,52.44671000000000304908098769374191761016845703125,-1.88814
410,"Moseley Hall, Birmingham",52.445999999999997953636921010911464691162109375,-1.8934
411,Mount Vernon Hospital,51.6167999999999977944753482006490230560302734375,-0.4447
412,Musgrove Park Hospital,51.01230000000000330828697769902646541595458984375,-3.1205
413,Muswell Hill,51.5919999999999987494447850622236728668212890625,-0.143
414,National Hospital for Neurology and Neurosurgery,51.5222222200000032898969948291778564453125,-0.12194444
415,Netley,50.87420999999999793317329022102057933807373046875,-1.35328
416,Netley Hospital,50.86659166999999825975464773364365100860595703125,-1.34174722
417,New Cross Hospital,52.5987999999999971123543218709528446197509765625,-2.0949
418,Newark-on-Trent,53.07611110999999937121174298226833343505859375,-0.80916667
419,Newark Hospital,53.0671999999999997044142219237983226776123046875,-0.8057
420,Newcastle General Hospital,54.9759999999999990905052982270717620849609375,-1.645
421,Newcastle upon Tyne,55.0076999999999998181010596454143524169921875,-1.6578
422,Newham University Hospital,51.52300000000000324007487506605684757232666015625,0.036100000000000000144328993201270350255072116851806640625
423,Newholme Hospital,53.2188000000000016598278307355940341949462890625,-1.6723
424,Newton Abbot,50.52900000000000346744855050928890705108642578125,-3.61
425,Newton Abbot Community Hospital,50.53920000000000101181285572238266468048095703125,-3.6124
426,Nightingale Hospital (Marylebone),51.5217999999999989313437254168093204498291015625,-0.1652
427,Norfolk,52.6666666699999979073254507966339588165283203125,1
428,Norfolk and Norwich University Hospital,52.61699999999999732835931354202330112457275390625,1.2199999999999999733546474089962430298328399658203125
429,North Cambridgeshire Hospital,52.66550000000000153477230924181640148162841796875,0.16430000000000000159872115546022541821002960205078125
430,North Devon District Hospital,51.0919999999999987494447850622236728668212890625,-4.051
431,North East England,55,-1.8667
432,North East Lincolnshire,53.5499999999999971578290569595992565155029296875,-0.1
433,North Lincolnshire,53.60000000000000142108547152020037174224853515625,-0.65
434,North Manchester General Hospital,53.52000000000000312638803734444081783294677734375,-2.23
435,North Middlesex University Hospital,51.61449999999999960209606797434389591217041015625,0.0737899999999999944844120136622223071753978729248046875
436,North Shields,55.00970000000000226236807066015899181365966796875,-1.4448
437,North Somerset,51.3900000000000005684341886080801486968994140625,-2.8
438,North Somerset Community Hospital,51.437399999999996680344338528811931610107421875,-2.8467
439,North Tyneside General Hospital,55.02499999999999857891452847979962825775146484375,-1.467
440,North West England,54.0167000000000001591615728102624416351318359375,-2.6333
441,North Yorkshire,54.1666666699999979073254507966339588165283203125,-1.33333333
442,Northallerton,54.3378000000000014324541552923619747161865234375,-1.4285
443,Northampton,52.23037479999999987967385095544159412384033203125,-0.8937527
444,Northampton General Hospital,52.23599999999999710098563809879124164581298828125,-0.8813
445,Northamptonshire,52.28333332999999782941813464276492595672607421875,-0.83333333
446,Northern General Hospital,53.41083333000000266110873781144618988037109375,-1.45833333
447,"Northfield, Birmingham",52.4080000000000012505552149377763271331787109375,-1.963
448,Northumberland,55.1666666699999979073254507966339588165283203125,-2
449,Northumbria Specialist Emergency Care Hospital,55.0741666699999967704570735804736614227294921875,-1.56916667
450,Northwick Park Hospital,51.57600000000000051159076974727213382720947265625,-0.322
451,Norwich,52.63000000000000255795384873636066913604736328125,1.2969999999999999307220832633902318775653839111328125
452,Norwich Community Hospital,52.63419999999999987494447850622236728668212890625,1.26029999999999997584154698415659368038177490234375
453,Nottingham,52.9500000000000028421709430404007434844970703125,-1.15
454,Nottingham City Hospital,52.9908333300000009558061719872057437896728515625,-1.15777778
455,Nottinghamshire,53.1666666699999979073254507966339588165283203125,-1
456,Nuffield Health Cambridge Hospital,52.1901399999999995316102285869419574737548828125,0.124060000000000003606004383982508443295955657958984375
457,Nuffield Orthopaedic Centre,51.75472221999999788977220305241644382476806640625,-1.20944444
458,Nuneaton,52.52300000000000324007487506605684757232666015625,-1.468
459,Oldham,53.54440000000000310365066980011761188507080078125,-2.1169
460,Ormskirk and District General Hospital,53.56410000000000337649908033199608325958251953125,-2.8719
461,Orpington,51.3740999999999985448084771633148193359375,0.0985999999999999932054350892940419726073741912841796875
462,Orpington Hospital,51.362200000000001409716787748038768768310546875,0.0950000000000000011102230246251565404236316680908203125
463,Oswestry,52.85979999999999989768184605054557323455810546875,-3.0538
464,Otley,53.905000000000001136868377216160297393798828125,-1.687
465,Oxford,51.7519444400000026007546694017946720123291015625,-1.25777778
466,Oxfordshire,51.75,-1.28
467,Paddington,51.517200000000002546585164964199066162109375,-0.173
468,Park Royal,51.529088000000001557054929435253143310546875,-0.281267
469,Paulton,51.3068999999999988403942552395164966583251953125,-2.5027
470,Paulton Memorial Hospital,51.29878800000000182990333996713161468505859375,-2.493467
471,Penzance,50.118999999999999772626324556767940521240234375,-5.537
472,Peterborough,52.5833333300000020926745492033660411834716796875,-0.25
473,Peterborough City Hospital,52.58460000000000178488335222937166690826416015625,-0.2784
474,Peterlee,54.75999999999999801048033987171947956085205078125,-1.33
475,Peterlee Community Hospital,54.754199999999997316990629769861698150634765625,-1.3332
476,"Petersfield, Hampshire",51.003770000000002937667886726558208465576171875,-0.93453
477,Petersfield Hospital,51.00399999999999778310666442848742008209228515625,-0.9423
478,Pilgrim Hospital,52.991050000000001318767317570745944976806640625,-0.00978
479,Pimlico,51.48870000000000146656020660884678363800048828125,-0.1395
480,Pinderfields Hospital,53.6934899999999970532371662557125091552734375,-1.48998
481,"Plaistow, Newham",51.5242999999999966576069709844887256622314453125,0.024500000000000000943689570931383059360086917877197265625
482,Plymouth,50.37138888999999863926859688945114612579345703125,-4.14222222
483,Pontefract,53.691000000000002501110429875552654266357421875,-1.312
484,Pontefract Hospital,53.69019999999999726014721090905368328094482421875,-1.30868
485,Poole,50.72149999999999891997504164464771747589111328125,-1.9735
486,Poole Hospital,50.72149999999999891997504164464771747589111328125,-1.9735
487,Portland Hospital,51.5227000000000003865352482534945011138916015625,-0.1436
488,Portsmouth,50.8058333299999986820694175548851490020751953125,-1.08722222
489,Prestwich Hospital,53.53649999999999664623828721232712268829345703125,-2.2899
490,"Princess Alexandra Hospital, Harlow",51.771399999999999863575794734060764312744140625,0.0864000000000000045741188614556449465453624725341796875
491,Princess Anne Hospital,50.93529500000000354020812665112316608428955078125,-1.434896
492,"Princess Royal Hospital, Haywards Heath",50.99111110999999851856046007014811038970947265625,-0.09027778
493,"Princess Royal Hospital, Telford",52.7120000000000032969182939268648624420166015625,-2.512
494,Princess Royal University Hospital,51.3652777799999995522739482112228870391845703125,0.053611109999999996544861602387754828669130802154541015625
495,"Princess of Wales Hospital, Ely",52.4132000000000033423930290155112743377685546875,0.275500000000000022648549702353193424642086029052734375
496,Priory Hospital,51.46264999999999645297066308557987213134765625,-0.25204
497,Putney,51.46490000000000009094947017729282379150390625,-0.2211
498,Queen's Hospital,51.56909999999999882902557146735489368438720703125,0.178900000000000003463895836830488406121730804443359375
499,"Queen's Hospital, Burton upon Trent",52.81770000000000209183781407773494720458984375,-1.656
500,Queen's Medical Centre,52.943333330000001524240360595285892486572265625,-1.18555556
501,Queen Alexandra Hospital,50.85052600000000211366568692028522491455078125,-1.06827
502,Queen Charlotte's and Chelsea Hospital,51.51610000000000155750967678613960742950439453125,-0.2373
503,"Queen Elizabeth Hospital, Gateshead",54.93900000000000005684341886080801486968994140625,-1.5806
504,"Queen Elizabeth Hospital, King's Lynn",52.75659999999999882902557146735489368438720703125,0.447099999999999997424282582869636826217174530029296875
505,"Queen Elizabeth Hospital, London",51.47890000000000298996383207850158214569091796875,0.051099999999999999589217480888692080043256282806396484375
506,Queen Elizabeth Hospital Birmingham,52.4516888899999997875056578777730464935302734375,-1.94307222
507,Queen Elizabeth II Hospital,55.86222221999999959507476887665688991546630859375,-4.34111111
508,"Queen Mary's Hospital, Roehampton",51.45530000000000114823706098832190036773681640625,-0.2422
509,"Queen Mary's Hospital, Sidcup",51.41890000000000071622707764618098735809326171875,0.10140000000000000401900734914306667633354663848876953125
510,Queen Victoria Hospital,51.135277999999999565261532552540302276611328125,0.0013890000000000000436595204433842809521593153476715087890625
511,"Queen Victoria Hospital, Morecambe",54.072800000000000864019966684281826019287109375,-2.8591
512,Rampton Secure Hospital,53.2899000000000029331204132176935672760009765625,-0.8365
513,"Reading, Berkshire",51.45416666999999932841092231683433055877685546875,-0.97305556
514,Redditch,52.280000000000001136868377216160297393798828125,-1.9127
515,"Redhill, Surrey",51.2393000000000000682121026329696178436279296875,-0.1726
516,"Richmond, London",51.4560000000000030695446184836328029632568359375,-0.301
517,"Richmond, North Yorkshire",54.40299999999999869260136620141565799713134765625,-1.737
518,Richmond Royal Hospital,51.46674999999999755573298898525536060333251953125,-0.30033333
519,"Ripley, Derbyshire",53.0499999999999971578290569595992565155029296875,-1.407
520,Ripley Hospital,53.047899999999998499333742074668407440185546875,-1.4109
521,Ripon,54.13799999999999812416717759333550930023193359375,-1.524
522,Ripon Community Hospital,54.1355999999999966121322358958423137664794921875,-1.527
523,Robert Jones and Agnes Hunt Orthopaedic Hospital,52.88419999999999987494447850622236728668212890625,-3.0323
524,Rochdale Infirmary,53.62349999999999994315658113919198513031005859375,-2.1598
525,Roehampton,51.45100000000000051159076974727213382720947265625,-0.243
526,Romford,51.57679999999999864712663111276924610137939453125,0.1801000000000000100808250635964213870465755462646484375
527,Romsey,50.98899999999999721467247582040727138519287109375,-1.4966
528,Romsey Community Hospital,50.9923610000000024911059881560504436492919921875,-1.48186
529,Roseberry Park Hospital,54.554911599999996951737557537853717803955078125,-1.2194287
530,Rosie Hospital,52.17369999999999663486960344016551971435546875,0.1391999999999999904076730672386474907398223876953125
531,Rothbury,55.30969999999999942019712761975824832916259765625,-1.9109
532,Rothbury Community Hospital,55.30680000000000262616595136933028697967529296875,-1.9138
533,Rotherham,53.42999999999999971578290569595992565155029296875,-1.357
534,Rotherham General Hospital,53.41369999999999862438926356844604015350341796875,-1.3431
535,Roundway Hospital,51.33930000000000148929757415316998958587646484375,-1.9876
536,Royal Albert Edward Infirmary,53.55810000000000314912540488876402378082275390625,-2.6296
537,Royal Alexandra Children's Hospital,50.8190000000000026147972675971686840057373046875,-0.117
538,Royal Blackburn Teaching Hospital,53.7353600000000000136424205265939235687255859375,-2.46198
539,Royal Bolton Hospital,53.553956999999996924088918603956699371337890625,-2.429894
540,Royal Borough of Kensington and Chelsea,51.5,-0.19
541,Royal Bournemouth Hospital,50.7478888899999986961120157502591609954833984375,-1.82186389
542,Royal Brompton Hospital,51.4894000000000033878677641041576862335205078125,-0.1707
543,Royal Buckinghamshire Hospital,51.8207000000000022055246517993509769439697265625,-0.816
544,Royal Cornwall Hospital,50.2667000000000001591615728102624416351318359375,-5.0916
545,Royal Derby Hospital,52.9114000000000004320099833421409130096435546875,-1.5153
546,Royal Devon and Exeter Hospital,50.71683999999999770125214126892387866973876953125,-3.50636
547,Royal Free Hospital,51.55305555999999711502823629416525363922119140625,-0.16527778
548,Royal Hallamshire Hospital,53.37849299999999885812940192408859729766845703125,-1.493196
549,Royal Hampshire County Hospital,51.0619999999999976125764078460633754730224609375,-1.33
550,Royal Hospital Chelsea,51.48638889000000062878825701773166656494140625,-0.15777778
551,Royal Hospital for Neuro-disability,51.45219999999999771489456179551780223846435546875,-0.2138
552,Royal Lancaster Infirmary,54.04249999999999687361196265555918216705322265625,-2.8003
553,Royal Leamington Spa Rehabilitation Hospital,52.26950000000000073896444519050419330596923828125,-1.5407
554,Royal Liverpool University Hospital,53.40943999999999647343429387547075748443603515625,-2.96412
555,Royal London Hospital,51.518000000000000682121026329696178436279296875,-0.0588
556,Royal Manchester Children's Hospital,53.4599644999999981109795044176280498504638671875,-2.2271186
557,Royal Marsden Hospital,51.49080000000000012505552149377763271331787109375,-0.1729
558,Royal National Hospital for Rheumatic Diseases,51.3915999999999968395059113390743732452392578125,-2.3898
559,Royal National Orthopaedic Hospital,51.63199999999999789679350215010344982147216796875,-0.305
560,"Royal National Throat, Nose and Ear Hospital",51.52916667000000217058186535723507404327392578125,-0.11916667
561,Royal Oldham Hospital,53.55279999999999773763192933984100818634033203125,-2.1227
562,Royal Orthopaedic Hospital,51.63199999999999789679350215010344982147216796875,-0.305
563,Royal Papworth Hospital,52.17361799999999760757418698631227016448974609375,0.1356259999999999965591968020817148499190807342529296875
564,Royal Preston Hospital,53.792000000000001591615728102624416351318359375,-2.706
565,Royal Shrewsbury Hospital,52.70900000000000318323145620524883270263671875,-2.793
566,Royal South Hants Hospital,50.9125999999999976353137753903865814208984375,-1.3968
567,Royal Stoke University Hospital,53.0039000000000015688783605583012104034423828125,-2.2145
568,Royal Surrey County Hospital,51.24054199999999781311998958699405193328857421875,-0.60936
569,Royal Sussex County Hospital,50.8191666700000013179305824451148509979248046875,-0.11694444
570,Royal United Hospital,51.3917000000000001591615728102624416351318359375,-2.391
571,"Royal Victoria Hospital, Bournemouth",50.72070000000000078443918027915060520172119140625,-1.8939
572,"Royal Victoria Hospital, Folkestone",51.0861000000000018417267710901796817779541015625,1.1715999999999999747757328805164434015750885009765625
573,Royal Victoria Infirmary,54.98100000000000164845914696343243122100830078125,-1.62
574,Runcorn,53.34100000000000108002495835535228252410888671875,-2.729
575,Russells Hall Hospital,52.50240000000000151203494169749319553375244140625,-2.1191
576,"Saint Mary's Hospital, Manchester",53.459444439999998621715349145233631134033203125,-2.22527778
577,Salford Royal Hospital,53.48807000000000044792614062316715717315673828125,-2.32139
578,Salisbury,51.0739999999999980673237587325274944305419921875,-1.7936
579,Salisbury District Hospital,51.0450000000000017053025658242404460906982421875,-1.788
580,Sandwell,52.505277780000000120708136819303035736083984375,-2.01722222
581,Sandwell General Hospital,52.52770000000000294448909698985517024993896484375,-1.9889
582,"Scarborough, North Yorkshire",54.277299999999996771293808706104755401611328125,-0.4017
583,Scarborough General Hospital (England),54.28190000000000026147972675971686840057373046875,-0.4346
584,Scunthorpe,53.5808999999999997498889570124447345733642578125,-0.6502
585,Scunthorpe General Hospital,53.5870000000000032969182939268648624420166015625,-0.667
586,Seacroft Hospital,53.805599999999998317434801720082759857177734375,-1.4708
587,Selly Oak Hospital,52.4370305599999966261748340912163257598876953125,-1.93711111
588,Shaftesbury,51.0058999999999969077180139720439910888671875,-2.1969
589,Sheffield,53.383333329999999250503606162965297698974609375,-1.46666667
590,Sheffield Children's Hospital,53.38069999999999737383404863066971302032470703125,-1.49
591,Shipston-on-Stour,52.06000000000000227373675443232059478759765625,-1.623
592,Shoreham-by-Sea,50.83400000000000318323145620524883270263671875,-0.273
593,Shotley Bridge,54.86999999999999744204615126363933086395263671875,-1.86
594,Shotley Bridge Hospital,54.86919999999999930651028989814221858978271484375,-1.8426
595,Shrewsbury,52.707999999999998408384271897375583648681640625,-2.754
596,Sidcup,51.426299999999997680788510479032993316650390625,0.10240000000000000490718576884319190867245197296142578125
597,Sir G B Hunter Memorial Hospital,54.9962000000000017507773009128868579864501953125,-1.5312
598,Skipton,53.9620000000000032969182939268648624420166015625,-2.017
599,Skipton General Hospital,53.95539999999999736246536485850811004638671875,-2.0192
600,Slough,51.50999999999999801048033987171947956085205078125,-0.59
601,"Smithfield, London",51.51899999999999835154085303656756877899169921875,-0.102
602,Solihull,52.4129999999999967030817060731351375579833984375,-1.778
603,Solihull Hospital,52.4183000000000021145751816220581531524658203125,-1.7737
604,Somerset,51.10000000000000142108547152020037174224853515625,-2.9
605,South Bristol Community Hospital,51.41290000000000048885340220294892787933349609375,-2.5863
606,South Hams Hospital,50.28920000000000101181285572238266468048095703125,-3.7836
607,South Kensington,51.49119999999999919282345217652618885040283203125,-0.1769
608,South Shields,54.99499999999999744204615126363933086395263671875,-1.43
609,South Tyneside District Hospital,54.97116667000000234111212193965911865234375,-1.42766667
610,South West England,50.96000000000000085265128291212022304534912109375,-3.22
611,South Yorkshire,53.5,-1.33333333
612,Southall,51.51209999999999666897565475665032863616943359375,-0.3779
613,Southampton,50.89999999999999857891452847979962825775146484375,-1.4
614,Southampton General Hospital,50.93299999999999982946974341757595539093017578125,-1.434
615,Southend University Hospital,51.55420000000000158024704433046281337738037109375,0.6877999999999999669597627871553413569927215576171875
616,"Southgate, London",51.63159999999999882902557146735489368438720703125,-0.1265
617,Southlands Hospital,50.84100000000000108002495835535228252410888671875,-0.257
618,Southport and Formby District General Hospital,53.63380000000000080717654782347381114959716796875,-2.9787
619,Southwark,51.4988000000000027966962079517543315887451171875,-0.0901
620,Springfield University Hospital,51.43849999999999766941982670687139034271240234375,-0.1766
621,"St. Anthony's Hospital, North Cheam",51.37963610999999986006514518521726131439208984375,-0.22069167
622,St Albans,51.75500000000000255795384873636066913604736328125,-0.336
624,St Andrew's Hospital,52.23799999999999954525264911353588104248046875,-0.874
625,St Ann's Hospital,51.58059999999999689634933019988238811492919921875,-0.0906
626,"St Ann's Hospital, Dorset",50.7000000000000028421709430404007434844970703125,-1.928
627,St Austell,50.33861900000000133559296955354511737823486328125,-4.792225
628,St Austell Community Hospital,50.32690000000000196678229258395731449127197265625,-4.7726
629,St Bartholomew's Hospital,51.5174999999999982946974341757595539093017578125,-0.1001
630,"St Bernard's Hospital, Hanwell",51.5064399999999977808329276740550994873046875,-0.3516
631,St Charles' Hospital,51.52210000000000178488335222937166690826416015625,-0.2176
632,St George's Hospital,51.4266999999999967485564411617815494537353515625,-0.1757
633,"St George's Hospital, Havering",51.54679999999999751025825389660894870758056640625,0.2185999999999999887645429907934158109128475189208984375
634,"St Helens Hospital, Merseyside",53.43939999999999912461134954355657100677490234375,-2.719
635,St Helier Hospital,51.38029999999999830606611794792115688323974609375,-0.1836
636,"St Ives, Cornwall",50.2109999999999985220711096189916133880615234375,-5.48
637,"St James' Hospital, Portsmouth",50.79643999999999692818164476193487644195556640625,-1.05006
638,St James's University Hospital,53.8080555599999996729820850305259227752685546875,-1.51861111
639,St John's Wood,51.53609999999999757847035652957856655120849609375,-0.1751
640,"St Leonard's Hospital, Ferndown",50.817599999999998772182152606546878814697265625,-1.85612
641,"St Luke's Hospital, Bradford",53.78410000000000223963070311583578586578369140625,-1.7608
642,St Luke's Hospital for Lunatics,51.5255555600000008098504622466862201690673828125,-0.08972222
643,"St Margaret's Hospital, Epping",51.7049999999999982946974341757595539093017578125,0.1237999999999999933830707732340670190751552581787109375
644,"St Mary's Hospital, Isle of Wight",50.7120000000000032969182939268648624420166015625,-1.301
645,"St Mary's Hospital, Kettering",52.3941999999999978854248183779418468475341796875,-0.7218
646,"St Mary's Hospital, London",51.51722222000000073194314609281718730926513671875,-0.17305556
647,"St Mary's Hospital, Portsmouth",50.80019999999999669171302230097353458404541015625,-1.0635
648,"St Michael's Hospital, Bristol",51.45909999999999939745976007543504238128662109375,-2.5994
649,"St Michael's Hospital, Hayle",50.17999999999999971578290569595992565155029296875,-5.424
650,"St Michael's Hospital, Warwick",52.28869999999999862438926356844604015350341796875,-1.5945
651,"St Nicholas Hospital, Newcastle upon Tyne",55.0063439999999985730028129182755947113037109375,-1.634747
652,St Oswald's Hospital,53.0133000000000009777068044058978557586669921875,-1.7391
653,"St Pancras, London",51.5262000000000028876456781290471553802490234375,-0.1178
654,St Pancras Hospital,51.53611111000000022386302589438855648040771484375,-0.13222222
655,"St Peter's Hospital, Chertsey",51.37722222000000016350895748473703861236572265625,-0.52638889
656,St Richard's Hospital,50.8430000000000035242919693700969219207763671875,-0.7702
657,St Thomas' Hospital,51.4990999999999985448084771633148193359375,-0.11891
658,Stafford,52.8066000000000030922819860279560089111328125,-2.1171
659,"Stamford, Lincolnshire",52.65599999999999880628820392303168773651123046875,-0.484
660,Stamford and Rutland Hospital,52.655158999999997604390955530107021331787109375,-0.4718503
661,Stanmore,51.61800000000000210320649784989655017852783203125,-0.314
662,Stepping Hill Hospital,53.38390100000000160207491717301309108734130859375,-2.131836
663,Stevenage,51.90166666999999733889126218855381011962890625,-0.20194444
664,Stockport,53.40829999999999699866748414933681488037109375,-2.1494
665,Stockton-on-Tees,54.57000000000000028421709430404007434844970703125,-1.32
666,Stockwell,51.46329999999999671445038984529674053192138671875,-0.1204
667,Stoke-on-Trent,53,-2.18333333
668,Stowmarket,52.18999999999999772626324556767940521240234375,1
669,Stratford-upon-Avon,52.192777780000000120708136819303035736083984375,-1.70638889
670,Stratford Hospital,52.1951999999999998181010596454143524169921875,-1.7136
671,Stroud,51.743999999999999772626324556767940521240234375,-2.215
672,Stroud General Hospital,51.74289999999999878355083637870848178863525390625,-2.2079
673,"Sunderland, Tyne and Wear",54.90610000000000212594386539421975612640380859375,-1.38113
674,Sunderland Eye Infirmary,54.8892000000000024328983272425830364227294921875,-1.3812
675,Sunderland Royal Hospital,54.90310000000000201225702767260372638702392578125,-1.4097
676,Surrey,51.25,-0.41666667
677,Sutton-in-Ashfield,53.125,-1.261
678,Sutton Coldfield,52.5630000000000023874235921539366245269775390625,-1.822
679,Swindon,51.56000000000000227373675443232059478759765625,-1.78
680,Tameside General Hospital,53.4933300000000002683009370230138301849365234375,-2.07111
681,Tatchbury Mount Hospital,50.93090000000000117097442853264510631561279296875,-1.5292
682,Taunton,51.01899999999999835154085303656756877899169921875,-3.1
683,Teddington,51.42399999999999948840923025272786617279052734375,-0.332
684,Teddington Memorial Hospital,51.4258055600000005824767868034541606903076171875,-0.34094444
685,Tees Valley,54.60499999999999687361196265555918216705322265625,-1.257
686,Telford,52.67660000000000053432813729159533977508544921875,-2.4469
687,Tenbury Community Hospital,52.315100000000001045918907038867473602294921875,-2.5898
688,Tenbury Wells,52.31000000000000227373675443232059478759765625,-2.59
689,Thatcham,51.405000000000001136868377216160297393798828125,-1.264
690,The Gordon Hospital,51.492199999999996862243278883397579193115234375,-0.136
691,The Harbour (hospital),53.80040000000000333102434524334967136383056640625,-2.9915
692,The London Clinic,51.5229722199999997656050254590809345245361328125,-0.15027778
693,The Meriden Hospital,52.4232999999999975671016727574169635772705078125,-1.4383
694,"The Montefiore Hospital, Hove",50.83165900000000192449078895151615142822265625,-0.15566
695,The Princess Grace Hospital,51.52250000000000085265128291212022304534912109375,-0.15305556
696,The Retreat,53.95097200000000015052137314341962337493896484375,-1.063125
697,Thornbury Hospital,53.3743240000000014333636499941349029541015625,-1.517411
698,Thornton Heath,51.4001999999999981127984938211739063262939453125,-0.1086
699,Thorpe Coombe Hospital,51.590699999999998226485331542789936065673828125,-0.0079
700,"Tiverton, Devon",50.90299999999999869260136620141565799713134765625,-3.488
701,Tiverton and District Hospital,50.90910000000000223963070311583578586578369140625,-3.4932
702,Tolworth,51.3838999999999970214048516936600208282470703125,-0.2807
703,Tolworth Hospital,51.37950000000000017053025658242404460906982421875,-0.2891
704,Tooting,51.4279999999999972715158946812152862548828125,-0.165
705,Torbay Hospital,50.481999999999999317878973670303821563720703125,-3.554
706,Torquay,50.469999999999998863131622783839702606201171875,-3.53
707,Totnes,50.4320000000000021600499167107045650482177734375,-3.684
708,Totnes Community Hospital,50.4326999999999969759301166050136089324951171875,-3.684
709,Totton,50.9200000000000017053025658242404460906982421875,-1.49
710,Trafford General Hospital,53.454059999999998353814589790999889373779296875,-2.37068
711,Truro,50.25999999999999801048033987171947956085205078125,-5.051
712,Tunbridge Wells Hospital,51.14880000000000137561073643155395984649658203125,0.308099999999999984989784707067883573472499847412109375
713,Tyne and Wear,54.97399999999999664623828721232712268829345703125,-1.6132
714,University College Hospital,51.5252416699999997717895894311368465423583984375,-0.13439722
715,University College Hospital at Westmoreland Street,51.51968000000000103000274975784122943878173828125,-0.14973
716,University Hospital Coventry,52.421199999999998908606357872486114501953125,-1.4378
717,University Hospital Lewisham,51.4532999999999987039700499735772609710693359375,-0.0172
718,University Hospital of Hartlepool,54.7023999999999972487785271368920803070068359375,-1.2276
719,University Hospital of North Durham,54.789299999999997226041159592568874359130859375,-1.59339
720,University Hospital of North Tees,54.58290000000000219415596802718937397003173828125,-1.3482
721,University of Bristol Dental Hospital,51.45859999999999701003616792149841785430908203125,-2.5952
722,Uxbridge,51.54039999999999821511664777062833309173583984375,-0.4778
723,Vale Community Hospital,51.689199999999999590727384202182292938232421875,-2.3548
724,Wallsend,54.9909999999999996589394868351519107818603515625,-1.534
725,Walsall,52.5799999999999982946974341757595539093017578125,-1.98
726,Walsall Manor Hospital,52.58272600000000096542862593196332454681396484375,-2.00047
727,Walthamstow,51.590000000000003410605131648480892181396484375,0
728,Walton Centre,53.46654000000000195313987205736339092254638671875,-2.931
729,Wansbeck General Hospital,55.18444444000000004280082066543400287628173828125,-1.54583333
730,Warneford Hospital,51.75083332999999896628651185892522335052490234375,-1.2225
731,Warrington,53.39166666999999932841092231683433055877685546875,-2.59722222
732,Warrington Hospital,53.39379999999999881765688769519329071044921875,-2.6097
733,Warwick,52.280000000000001136868377216160297393798828125,-1.59
734,Warwick Hospital,52.2903000000000020008883439004421234130859375,-1.5836
735,Watford,51.655000000000001136868377216160297393798828125,-0.39569444
736,Watford General Hospital,51.6483333299999998189377947710454463958740234375,-0.40388889
737,"Wellington, Somerset",50.9754999999999967030817060731351375579833984375,-3.2243
738,"Wellington Hospital, London",51.532499999999998863131622783839702606201171875,-0.1726
739,Welwyn Garden City,51.80619999999999691908669774420559406280517578125,-0.1932
740,West Berkshire Community Hospital,51.40599999999999880628820392303168773651123046875,-1.292
741,West Cornwall Hospital,50.1219999999999998863131622783839702606201171875,-5.54
742,West Cumberland Hospital,54.52980000000000160298441187478601932525634765625,-3.5628
743,"West End, Hampshire",50.921999999999997044142219237983226776123046875,-1.3309
744,West Heath Hospital,52.39800000000000324007487506605684757232666015625,-1.9538
745,West Middlesex University Hospital,51.47359999999999757847035652957856655120849609375,-0.3257
746,West Midlands (region),52.469999999999998863131622783839702606201171875,-2.29
747,West Park Hospital,54.54326999999999969759301166050136089324951171875,-1.5906
748,West Suffolk Hospital,52.2316000000000002501110429875552654266357421875,0.70920000000000005258016244624741375446319580078125
749,West Sussex,50.9166666699999979073254507966339588165283203125,-0.5
750,West Yorkshire,53.75,-1.66666667
751,Western Community Hospital,50.9251000000000004774847184307873249053955078125,-1.4463
752,Western Eye Hospital,51.52080000000000126192389870993793010711669921875,-0.1635
753,Westminster Memorial Hospital,51.0048000000000030240698833949863910675048828125,-2.2001
754,Westmorland General Hospital,54.30639999999999645297066308557987213134765625,-2.7323
755,Weston-super-Mare,51.34599999999999653255144949071109294891357421875,-2.977
756,Weston General Hospital,51.3211900000000014188117347657680511474609375,-2.971386
757,Weston Park Hospital,53.38080000000000069348971010185778141021728515625,-1.4907
758,Wexham,51.542000000000001591615728102624416351318359375,-0.566
759,Wexham Park Hospital,51.5319999999999964757080306299030780792236328125,-0.576
760,Wharfedale Hospital,53.91409999999999769215719425119459629058837890625,-1.7001
761,Whipps Cross University Hospital,51.577899999999999636202119290828704833984375,0.00200000000000000004163336342344337026588618755340576171875
762,Whiston Hospital,53.420850000000001500666257925331592559814453125,-2.78768
763,Whitby,54.4857999999999975671016727574169635772705078125,-0.6206
764,Whitby Hospital,54.48400000000000176214598468504846096038818359375,-0.619
765,Whitechapel,51.51650000000000062527760746888816356658935546875,-0.075
766,Whitehaven,54.548000000000001818989403545856475830078125,-3.5855
767,Whittington Hospital,51.56649999999999778310666442848742008209228515625,-0.1395
768,"Whitworth Hospital, Matlock",53.1503000000000014324541552923619747161865234375,-1.573
769,Wigan,53.54480000000000217141860048286616802215576171875,-2.6318
770,William Harvey Hospital,51.141300000000001091393642127513885498046875,0.91420000000000001261213355974177829921245574951171875
771,Wilson Hospital,51.39739999999999753299562144093215465545654296875,-0.1631
772,Wiltshire,51.3333333300000020926745492033660411834716796875,-1.91666667
773,Winchester,51.06320000000000192130755749531090259552001953125,-1.308
774,Wisbech,52.6640000000000014779288903810083866119384765625,0.1600000000000000033306690738754696212708950042724609375
775,Withernsea,53.72849999999999681676854379475116729736328125,0.03819999999999999784616733222719631157815456390380859375
776,Withernsea Community Hospital,53.72849999999999681676854379475116729736328125,0.03819999999999999784616733222719631157815456390380859375
777,Withington Community Hospital,53.4252777800000018260107026435434818267822265625,-2.24583333
778,Wolverhampton,52.5833333300000020926745492033660411834716796875,-2.13333333
779,Woolwich,51.48799999999999954525264911353588104248046875,0.063000000000000000444089209850062616169452667236328125
780,"Worcester, England",52.19200000000000017053025658242404460906982421875,-2.22
781,Worcestershire Royal Hospital,52.1909399999999976671460899524390697479248046875,-2.18164
782,Worksop,53.304166670000000749496393837034702301025390625,-1.12444444
783,Worthing,50.81471110999999751811628811992704868316650390625,-0.37138611
784,Worthing Hospital,50.81680000000000063664629124104976654052734375,-0.3643
785,Wrightington,53.60799999999999698729880037717521190643310546875,-2.701
786,Wrightington Hospital,53.58970000000000055706550483591854572296142578125,-2.7115
787,Wyboston,52.19500000000000028421709430404007434844970703125,-0.299
788,Wycombe Hospital,51.6261999999999972033037920482456684112548828125,-0.7536
789,Wythenshawe Hospital,53.38973839999999881911207921802997589111328125,-2.2950107
790,Yeovil,50.9451999999999998181010596454143524169921875,-2.637
791,Yeovil District Hospital,50.9451999999999998181010596454143524169921875,-2.6339
792,York,53.9583333300000020926745492033660411834716796875,-1.08027778
793,Yorkshire,54,-2
794,Yorkshire and the Humber,53.56666666999999648623997927643358707427978515625,-1.2
